[
  { "id": 1, "name": "Ahmedabad", "temperature": 34, "airQuality": "Moderate", "humidity": 45, "soilMoisture": 25, "latitude": 23.0225, "longitude": 72.5714 },
  { "id": 2, "name": "Bangalore", "temperature": 28, "airQuality": "Good", "humidity": 65, "soilMoisture": 30, "latitude": 12.9716, "longitude": 77.5946 },
  { "id": 3, "name": "Bhopal", "temperature": 30, "airQuality": "Moderate", "humidity": 55, "soilMoisture": 35, "latitude": 23.2599, "longitude": 77.4126 },
  { "id": 4, "name": "Chandigarh", "temperature": 27, "airQuality": "Good", "humidity": 50, "soilMoisture": 28, "latitude": 30.7333, "longitude": 76.7794 },
  { "id": 5, "name": "Chennai", "temperature": 32, "airQuality": "Moderate", "humidity": 70, "soilMoisture": 40, "latitude": 13.0827, "longitude": 80.2707 },
  { "id": 6, "name": "Delhi", "temperature": 35, "airQuality": "Unhealthy", "humidity": 40, "soilMoisture": 22, "latitude": 28.7041, "longitude": 77.1025 },
  { "id": 7, "name": "Hyderabad", "temperature": 29, "airQuality": "Moderate", "humidity": 60, "soilMoisture": 35, "latitude": 17.3850, "longitude": 78.4867 },
  { "id": 8, "name": "Mumbai", "temperature": 30, "airQuality": "Moderate", "humidity": 75, "soilMoisture": 38, "latitude": 19.0760, "longitude": 72.8777 },
  { "id": 9, "name": "Kolkata", "temperature": 30, "airQuality": "Moderate", "humidity": 65, "soilMoisture": 30, "latitude": 22.5726, "longitude": 88.3639 },
  { "id": 10, "name": "Jaipur", "temperature": 33, "airQuality": "Moderate", "humidity": 50, "soilMoisture": 25, "latitude": 26.9124, "longitude": 75.7873 },
  { "id": 11, "name": "New York", "temperature": 22, "airQuality": "Good", "humidity": 65, "soilMoisture": 30, "latitude": 40.7128, "longitude": -74.0060 },
  { "id": 12, "name": "Los Angeles", "temperature": 27, "airQuality": "Moderate", "humidity": 50, "soilMoisture": 25, "latitude": 34.0522, "longitude": -118.2437 },
  { "id": 13, "name": "London", "temperature": 17, "airQuality": "Good", "humidity": 70, "soilMoisture": 45, "latitude": 51.5074, "longitude": -0.1278 },
  { "id": 14, "name": "Tokyo", "temperature": 26, "airQuality": "Moderate", "humidity": 70, "soilMoisture": 30, "latitude": 35.6762, "longitude": 139.6503 },
  { "id": 15, "name": "Paris", "temperature": 23, "airQuality": "Good", "humidity": 62, "soilMoisture": 40, "latitude": 48.8566, "longitude": 2.3522 },
  { "id": 16, "name": "Dubai", "temperature": 37, "airQuality": "Poor", "humidity": 20, "soilMoisture": 18, "latitude": 25.2048, "longitude": 55.2708 },
  { "id": 17, "name": "Singapore", "temperature": 29, "airQuality": "Good", "humidity": 78, "soilMoisture": 35, "latitude": 1.3521, "longitude": 103.8198 },
  { "id": 18, "name": "Toronto", "temperature": 15, "airQuality": "Good", "humidity": 60, "soilMoisture": 35, "latitude": 43.6532, "longitude": -79.3832 },
  { "id": 19, "name": "Berlin", "temperature": 20, "airQuality": "Good", "humidity": 55, "soilMoisture": 40, "latitude": 52.5200, "longitude": 13.4050 },
  { "id": 20, "name": "Rome", "temperature": 25, "airQuality": "Good", "humidity": 55, "soilMoisture": 35, "latitude": 41.9028, "longitude": 12.4964 },
  { "id": 21, "name": "Jakarta", "temperature": 30, "airQuality": "Moderate", "humidity": 80, "soilMoisture": 40, "latitude": -6.2088, "longitude": 106.8456 },
  { "id": 22, "name": "Bangkok", "temperature": 32, "airQuality": "Moderate", "humidity": 70, "soilMoisture": 28, "latitude": 13.7563, "longitude": 100.5018 },
  { "id": 23, "name": "Seoul", "temperature": 27, "airQuality": "Moderate", "humidity": 65, "soilMoisture": 33, "latitude": 37.5665, "longitude": 126.9780 },
  { "id": 24, "name": "Madrid", "temperature": 26, "airQuality": "Good", "humidity": 55, "soilMoisture": 35, "latitude": 40.4168, "longitude": -3.7038 },
  { "id": 25, "name": "Istanbul", "temperature": 21, "airQuality": "Good", "humidity": 68, "soilMoisture": 36, "latitude": 41.0082, "longitude": 28.9784 },
  { "id": 26, "name": "Cairo", "temperature": 35, "airQuality": "Poor", "humidity": 25, "soilMoisture": 15, "latitude": 30.0444, "longitude": 31.2357 },
  { "id": 27, "name": "Mexico City", "temperature": 24, "airQuality": "Moderate", "humidity": 60, "soilMoisture": 37, "latitude": 19.4326, "longitude": -99.1332 },
  { "id": 28, "name": "San Francisco", "temperature": 18, "airQuality": "Good", "humidity": 70, "soilMoisture": 45, "latitude": 37.7749, "longitude": -122.4194 },
  { "id": 29, "name": "Moscow", "temperature": 10, "airQuality": "Good", "humidity": 75, "soilMoisture": 50, "latitude": 55.7558, "longitude": 37.6173 },
  { "id": 30, "name": "Sydney", "temperature": 22, "airQuality": "Good", "humidity": 65, "soilMoisture": 40, "latitude": -33.8688, "longitude": 151.2093 },
  { "id": 31, "name": "Visakhapatnam", "temperature": 31, "airQuality": "Moderate", "humidity": 70, "soilMoisture": 40, "latitude": 17.6868, "longitude": 83.2185 },
  { "id": 32, "name": "Ludhiana", "temperature": 31, "airQuality": "Moderate", "humidity": 58, "soilMoisture": 28, "latitude": 30.9010, "longitude": 75.8573 },
  { "id": 33, "name": "Ranchi", "temperature": 30, "airQuality": "Good", "humidity": 60, "soilMoisture": 35, "latitude": 23.3441, "longitude": 85.3096 },
  { "id": 34, "name": "Patna", "temperature": 33, "airQuality": "Moderate", "humidity": 50, "soilMoisture": 26, "latitude": 25.5941, "longitude": 85.1376 },
  { "id": 35, "name": "Vadodara", "temperature": 30, "airQuality": "Moderate", "humidity": 55, "soilMoisture": 28, "latitude": 22.3072, "longitude": 73.1812 },
  { "id": 36, "name": "Lucknow", "temperature": 32, "airQuality": "Moderate", "humidity": 58, "soilMoisture": 28, "latitude": 26.8467, "longitude": 80.9462 },
  { "id": 37, "name": "Thiruvananthapuram", "temperature": 27, "airQuality": "Good", "humidity": 75, "soilMoisture": 38, "latitude": 8.5241, "longitude": 76.9366 },
  { "id": 38, "name": "Abu Dhabi", "temperature": 34, "airQuality": "Moderate", "humidity": 45, "soilMoisture": 25, "latitude": 24.4539, "longitude": 54.3773 },
  { "id": 39, "name": "Amsterdam", "temperature": 18, "airQuality": "Good", "humidity": 65, "soilMoisture": 30, "latitude": 52.3676, "longitude": 4.9041 },
  { "id": 40, "name": "Ankara", "temperature": 25, "airQuality": "Good", "humidity": 60, "soilMoisture": 35, "latitude": 39.9334, "longitude": 32.8597 },
  { "id": 41, "name": "Athens", "temperature": 29, "airQuality": "Unhealthy", "humidity": 50, "soilMoisture": 20, "latitude": 37.9838, "longitude": 23.7275 },
  { "id": 42, "name": "Atlanta", "temperature": 20, "airQuality": "Good", "humidity": 55, "soilMoisture": 40, "latitude": 33.7490, "longitude": -84.3880 },
  { "id": 43, "name": "Aurangabad", "temperature": 35, "airQuality": "Poor", "humidity": 25, "soilMoisture": 15, "latitude": 19.8762, "longitude": 75.3433 },
  { "id": 44, "name": "Austin", "temperature": 22, "airQuality": "Good", "humidity": 65, "soilMoisture": 38, "latitude": 30.2672, "longitude": -97.7431 },
  { "id": 45, "name": "Bharatpur", "temperature": 28, "airQuality": "Good", "humidity": 65, "soilMoisture": 30, "latitude": 27.2172, "longitude": 77.4900 },
  { "id": 46, "name": "Barcelona", "temperature": 25, "airQuality": "Good", "humidity": 60, "soilMoisture": 35, "latitude": 41.3851, "longitude": 2.1734 },
  { "id": 47, "name": "Beijing", "temperature": 29, "airQuality": "Unhealthy", "humidity": 50, "soilMoisture": 20, "latitude": 39.9042, "longitude": 116.4074 },
  { "id": 48, "name": "Boston", "temperature": 18, "airQuality": "Good", "humidity": 65, "soilMoisture": 30, "latitude": 42.3601, "longitude": -71.0589 },
  { "id": 49, "name": "Buenos Aires", "temperature": 22, "airQuality": "Moderate", "humidity": 60, "soilMoisture": 32, "latitude": -34.6037, "longitude": -58.3816 },
  { "id": 50, "name": "Cape Town", "temperature": 22, "airQuality": "Good", "humidity": 65, "soilMoisture": 38, "latitude": -33.9249, "longitude": 18.4241 },
  { "id": 51, "name": "Chicago", "temperature": 16, "airQuality": "Moderate", "humidity": 58, "soilMoisture": 33, "latitude": 41.8781, "longitude": -87.6298 },
  { "id": 52, "name": "Cardiff", "temperature": 32, "airQuality": "Moderate", "humidity": 70, "soilMoisture": 40, "latitude": 51.4816, "longitude": -3.1791 },
  { "id": 53, "name": "Dehradun", "temperature": 35, "airQuality": "Unhealthy", "humidity": 40, "soilMoisture": 22, "latitude": 30.3165, "longitude": 78.0322 },
  { "id": 54, "name": "Darjeeling", "temperature": 37, "airQuality": "Poor", "humidity": 20, "soilMoisture": 18, "latitude": 27.0360, "longitude": 88.2627 },
  { "id": 55, "name": "Dublin", "temperature": 18, "airQuality": "Good", "humidity": 65, "soilMoisture": 30, "latitude": 53.3498, "longitude": -6.2603 },
  { "id": 56, "name": "Warangal", "temperature": 29, "airQuality": "Moderate", "humidity": 60, "soilMoisture": 35, "latitude": 17.9689, "longitude": 79.5941 },
  { "id": 57, "name": "Surat", "temperature": 33, "airQuality": "Moderate", "humidity": 50, "soilMoisture": 25, "latitude": 21.1702, "longitude": 72.8311 },
  { "id": 58, "name": "Meerut", "temperature": 30, "airQuality": "Moderate", "humidity": 65, "soilMoisture": 30, "latitude": 28.9845, "longitude": 77.7064 },
  { "id": 59, "name": "Indore", "temperature": 27, "airQuality": "Moderate", "humidity": 50, "soilMoisture": 25, "latitude": 22.7196, "longitude": 75.8577 },
  { "id": 60, "name": "Shimla", "temperature": 10, "airQuality": "Good", "humidity": 75, "soilMoisture": 50, "latitude": 31.1048, "longitude": 77.1734 },
  { "id": 61, "name": "Nagpur", "temperature": 32, "airQuality": "Moderate", "humidity": 55, "soilMoisture": 28, "latitude": 21.1458, "longitude": 79.0882 },
  { "id": 62, "name": "Raipur", "temperature": 33, "airQuality": "Moderate", "humidity": 50, "soilMoisture": 26, "latitude": 21.2514, "longitude": 81.6296 },
  { "id": 63, "name": "Amritsar", "temperature": 15, "airQuality": "Good", "humidity": 60, "soilMoisture": 35, "latitude": 31.6340, "longitude": 74.8723 },
  { "id": 64, "name": "Shanghai", "temperature": 31, "airQuality": "Unhealthy", "humidity": 72, "soilMoisture": 28, "latitude": 31.2304, "longitude": 121.4737 },
  { "id": 65, "name": "Kozhikode", "temperature": 22, "airQuality": "Good", "humidity": 65, "soilMoisture": 40, "latitude": 11.2588, "longitude": 75.7804 },
  { "id": 66, "name": "Warsaw", "temperature": 18, "airQuality": "Good", "humidity": 70, "soilMoisture": 50, "latitude": 52.2297, "longitude": 21.0122 },
  { "id": 67, "name": "Oslo", "temperature": 12, "airQuality": "Good", "humidity": 70, "soilMoisture": 50, "latitude": 59.9139, "longitude": 10.7522 },
  { "id": 68, "name": "Stockholm", "temperature": 15, "airQuality": "Good", "humidity": 65, "soilMoisture": 45, "latitude": 59.3293, "longitude": 18.0686 },
  { "id": 69, "name": "Helsinki", "temperature": 14, "airQuality": "Good", "humidity": 75, "soilMoisture": 55, "latitude": 60.1699, "longitude": 24.9384 },
  { "id": 70, "name": "Copenhagen", "temperature": 16, "airQuality": "Good", "humidity": 68, "soilMoisture": 48, "latitude": 55.6761, "longitude": 12.5683 },
  { "id": 71, "name": "Zurich", "temperature": 18, "airQuality": "Good", "humidity": 60, "soilMoisture": 40, "latitude": 47.3769, "longitude": 8.5417 },
  { "id": 72, "name": "Vienna", "temperature": 20, "airQuality": "Good", "humidity": 55, "soilMoisture": 35, "latitude": 48.2082, "longitude": 16.3738 },
  { "id": 73, "name": "Prague", "temperature": 19, "airQuality": "Good", "humidity": 60, "soilMoisture": 38, "latitude": 50.0755, "longitude": 14.4378 },
  { "id": 74, "name": "Budapest", "temperature": 21, "airQuality": "Good", "humidity": 58, "soilMoisture": 37, "latitude": 47.4979, "longitude": 19.0402 },
  { "id": 75, "name": "Brussels", "temperature": 17, "airQuality": "Good", "humidity": 65, "soilMoisture": 45, "latitude": 50.8503, "longitude": 4.3517 },
  { "id": 76, "name": "Lisbon", "temperature": 22, "airQuality": "Good", "humidity": 60, "soilMoisture": 35, "latitude": 38.7223, "longitude": -9.1393 },
  { "id": 77, "name": "Milan", "temperature": 24, "airQuality": "Moderate", "humidity": 65, "soilMoisture": 40, "latitude": 45.4642, "longitude": 9.1900 },
  { "id": 78, "name": "Riyadh", "temperature": 38, "airQuality": "Poor", "humidity": 15, "soilMoisture": 12, "latitude": 24.7136, "longitude": 46.6753 },
  { "id": 79, "name": "Doha", "temperature": 36, "airQuality": "Moderate", "humidity": 25, "soilMoisture": 20, "latitude": 25.2854, "longitude": 51.5310 },
  { "id": 80, "name": "Manila", "temperature": 30, "airQuality": "Moderate", "humidity": 80, "soilMoisture": 45, "latitude": 14.5995, "longitude": 120.9842 },
  { "id": 81, "name": "Kuala Lumpur", "temperature": 29, "airQuality": "Moderate", "humidity": 75, "soilMoisture": 38, "latitude": 3.1390, "longitude": 101.6869 },
  { "id": 82, "name": "Hanoi", "temperature": 28, "airQuality": "Moderate", "humidity": 75, "soilMoisture": 35, "latitude": 21.0278, "longitude": 105.8342 },
  { "id": 83, "name": "Ho Chi Minh City", "temperature": 30, "airQuality": "Moderate", "humidity": 78, "soilMoisture": 40, "latitude": 10.8231, "longitude": 106.6297 },
  { "id": 84, "name": "Hong Kong", "temperature": 28, "airQuality": "Moderate", "humidity": 75, "soilMoisture": 35, "latitude": 22.3193, "longitude": 114.1694 },
  { "id": 85, "name": "Taipei", "temperature": 27, "airQuality": "Moderate", "humidity": 70, "soilMoisture": 33, "latitude": 25.0330, "longitude": 121.5654 },
  { "id": 86, "name": "Melbourne", "temperature": 20, "airQuality": "Good", "humidity": 60, "soilMoisture": 35, "latitude": -37.8136, "longitude": 144.9631 },
  { "id": 87, "name": "Auckland", "temperature": 18, "airQuality": "Good", "humidity": 70, "soilMoisture": 45, "latitude": -36.8485, "longitude": 174.7633 },
  { "id": 88, "name": "Wellington", "temperature": 16, "airQuality": "Good", "humidity": 75, "soilMoisture": 50, "latitude": -41.2865, "longitude": 174.7762 },
  { "id": 89, "name": "Johannesburg", "temperature": 25, "airQuality": "Moderate", "humidity": 50, "soilMoisture": 30, "latitude": -26.2041, "longitude": 28.0473 },
  { "id": 90, "name": "Nairobi", "temperature": 27, "airQuality": "Moderate", "humidity": 60, "soilMoisture": 35, "latitude": -1.2864, "longitude": 36.8172 },
  { "id": 91, "name": "Casablanca", "temperature": 24, "airQuality": "Moderate", "humidity": 65, "soilMoisture": 30, "latitude": 33.5731, "longitude": -7.5898 },
  { "id": 92, "name": "Marrakech", "temperature": 28, "airQuality": "Moderate", "humidity": 50, "soilMoisture": 25, "latitude": 31.6295, "longitude": -7.9811 },
  { "id": 93, "name": "Lagos", "temperature": 30, "airQuality": "Moderate", "humidity": 75, "soilMoisture": 40, "latitude": 6.5244, "longitude": 3.3792 },
  { "id": 94, "name": "Accra", "temperature": 29, "airQuality": "Moderate", "humidity": 70, "soilMoisture": 35, "latitude": 5.6037, "longitude": -0.1870 },
  { "id": 95, "name": "Addis Ababa", "temperature": 22, "airQuality": "Good", "humidity": 65, "soilMoisture": 40, "latitude": 9.0054, "longitude": 38.7636 },
  { "id": 96, "name": "Dar es Salaam", "temperature": 28, "airQuality": "Moderate", "humidity": 70, "soilMoisture": 38, "latitude": -6.7924, "longitude": 39.2083 },
  { "id": 97, "name": "Kampala", "temperature": 26, "airQuality": "Moderate", "humidity": 75, "soilMoisture": 40, "latitude": 0.3476, "longitude": 32.5825 },
  { "id": 98, "name": "Dakar", "temperature": 27, "airQuality": "Moderate", "humidity": 70, "soilMoisture": 35, "latitude": 14.7167, "longitude": -17.4677 },
  { "id": 99, "name": "Abidjan", "temperature": 29, "airQuality": "Moderate", "humidity": 75, "soilMoisture": 40, "latitude": 5.3599, "longitude": -4.0083 },
  { "id": 100, "name": "Agra", "temperature": 33, "airQuality": "Moderate", "humidity": 50, "soilMoisture": 25, "latitude": 27.1767, "longitude": 78.0081 },
  { "id": 101, "name": "Allahabad", "temperature": 34, "airQuality": "Moderate", "humidity": 55, "soilMoisture": 28, "latitude": 25.4358, "longitude": 81.8463 },
  { "id": 102, "name": "Asansol", "temperature": 32, "airQuality": "Moderate", "humidity": 65, "soilMoisture": 30, "latitude": 23.6739, "longitude": 86.9524 },
  { "id": 103, "name": "Bhilai", "temperature": 31, "airQuality": "Moderate", "humidity": 55, "soilMoisture": 28, "latitude": 21.1938, "longitude": 81.3509 },
  { "id": 104, "name": "Bhiwandi", "temperature": 30, "airQuality": "Moderate", "humidity": 65, "soilMoisture": 30, "latitude": 19.2969, "longitude": 73.0631 },
  { "id": 105, "name": "Bhubaneswar", "temperature": 29, "airQuality": "Good", "humidity": 65, "soilMoisture": 35, "latitude": 20.2961, "longitude": 85.8245 },
  { "id": 106, "name": "Bikaner", "temperature": 36, "airQuality": "Moderate", "humidity": 40, "soilMoisture": 20, "latitude": 28.0229, "longitude": 73.3119 },
  { "id": 107, "name": "Bokaro Steel City", "temperature": 31, "airQuality": "Moderate", "humidity": 60, "soilMoisture": 30, "latitude": 23.6693, "longitude": 86.1511 },
  { "id": 108, "name": "Coimbatore", "temperature": 28, "airQuality": "Good", "humidity": 70, "soilMoisture": 35, "latitude": 11.0168, "longitude": 76.9558 },
  { "id": 109, "name": "Cuttack", "temperature": 30, "airQuality": "Moderate", "humidity": 65, "soilMoisture": 35, "latitude": 20.4625, "longitude": 85.8825 },
  { "id": 110, "name": "Dhanbad", "temperature": 32, "airQuality": "Moderate", "humidity": 60, "soilMoisture": 30, "latitude": 23.7957, "longitude": 86.4304 },
  { "id": 111, "name": "Durgapur", "temperature": 31, "airQuality": "Moderate", "humidity": 65, "soilMoisture": 30, "latitude": 23.5204, "longitude": 87.3119 },
  { "id": 112, "name": "Erode", "temperature": 29, "airQuality": "Good", "humidity": 70, "soilMoisture": 35, "latitude": 11.3410, "longitude": 77.7172 },
  { "id": 113, "name": "Faridabad", "temperature": 33, "airQuality": "Moderate", "humidity": 50, "soilMoisture": 25, "latitude": 28.4089, "longitude": 77.3178 },
  { "id": 114, "name": "Firozabad", "temperature": 34, "airQuality": "Moderate", "humidity": 55, "soilMoisture": 28, "latitude": 27.1590, "longitude": 78.3958 },
  { "id": 115, "name": "Ghaziabad", "temperature": 32, "airQuality": "Moderate", "humidity": 50, "soilMoisture": 25, "latitude": 28.6692, "longitude": 77.4538 },
  { "id": 116, "name": "Gorakhpur", "temperature": 33, "airQuality": "Moderate", "humidity": 55, "soilMoisture": 28, "latitude": 26.7606, "longitude": 83.3732 },
  { "id": 117, "name": "Gulbarga", "temperature": 31, "airQuality": "Moderate", "humidity": 60, "soilMoisture": 30, "latitude": 17.3297, "longitude": 76.8343 },
  { "id": 118, "name": "Guntur", "temperature": 30, "airQuality": "Moderate", "humidity": 65, "soilMoisture": 35, "latitude": 16.3067, "longitude": 80.4365 },
  { "id": 119, "name": "Gurgaon", "temperature": 32, "airQuality": "Moderate", "humidity": 50, "soilMoisture": 25, "latitude": 28.4595, "longitude": 77.0266 },
  { "id": 120, "name": "Guwahati", "temperature": 28, "airQuality": "Good", "humidity": 70, "soilMoisture": 40, "latitude": 26.1445, "longitude": 91.7362 },
  { "id": 121, "name": "Gwalior", "temperature": 33, "airQuality": "Moderate", "humidity": 50, "soilMoisture": 25, "latitude": 26.2183, "longitude": 78.1828 },
  { "id": 122, "name": "Hubli-Dharwad", "temperature": 29, "airQuality": "Good", "humidity": 65, "soilMoisture": 35, "latitude": 15.3647, "longitude": 75.1240 },
  { "id": 123, "name": "Jabalpur", "temperature": 31, "airQuality": "Moderate", "humidity": 55, "soilMoisture": 28, "latitude": 23.1815, "longitude": 79.9864 },
  { "id": 124, "name": "Jalandhar", "temperature": 30, "airQuality": "Moderate", "humidity": 55, "soilMoisture": 28, "latitude": 31.3260, "longitude": 75.5762 },
  { "id": 125, "name": "Jammu", "temperature": 25, "airQuality": "Good", "humidity": 60, "soilMoisture": 35, "latitude": 32.7266, "longitude": 74.8570 },
  { "id": 126, "name": "Jamnagar", "temperature": 32, "airQuality": "Moderate", "humidity": 50, "soilMoisture": 25, "latitude": 22.4707, "longitude": 70.0577 },
  { "id": 127, "name": "Jamshedpur", "temperature": 31, "airQuality": "Moderate", "humidity": 60, "soilMoisture": 30, "latitude": 22.8046, "longitude": 86.2029 },
  { "id": 128, "name": "Jhansi", "temperature": 34, "airQuality": "Moderate", "humidity": 50, "soilMoisture": 25, "latitude": 25.4484, "longitude": 78.5685 },
  { "id": 129, "name": "Jodhpur", "temperature": 36, "airQuality": "Moderate", "humidity": 40, "soilMoisture": 20, "latitude": 26.2389, "longitude": 73.0243 },
  { "id": 130, "name": "Kakinada", "temperature": 30, "airQuality": "Moderate", "humidity": 65, "soilMoisture": 35, "latitude": 16.9891, "longitude": 82.2475 },
  { "id": 131, "name": "Kannur", "temperature": 27, "airQuality": "Good", "humidity": 75, "soilMoisture": 40, "latitude": 11.8745, "longitude": 75.3704 },
  { "id": 132, "name": "Kanpur", "temperature": 33, "airQuality": "Moderate", "humidity": 50, "soilMoisture": 25, "latitude": 26.4499, "longitude": 80.3319 },
  { "id": 133, "name": "Kochi", "temperature": 28, "airQuality": "Good", "humidity": 75, "soilMoisture": 40, "latitude": 9.9312, "longitude": 76.2673 },
  { "id": 134, "name": "Kolhapur", "temperature": 29, "airQuality": "Good", "humidity": 65, "soilMoisture": 35, "latitude": 16.7050, "longitude": 74.2433 },
  { "id": 135, "name": "Kollam", "temperature": 27, "airQuality": "Good", "humidity": 75, "soilMoisture": 40, "latitude": 8.8932, "longitude": 76.6141 },
  { "id": 136, "name": "Kurnool", "temperature": 32, "airQuality": "Moderate", "humidity": 55, "soilMoisture": 28, "latitude": 15.8281, "longitude": 78.0373 },
  { "id": 137, "name": "Madurai", "temperature": 30, "airQuality": "Moderate", "humidity": 65, "soilMoisture": 35, "latitude": 9.9252, "longitude": 78.1198 },
  { "id": 138, "name": "Malappuram", "temperature": 27, "airQuality": "Good", "humidity": 75, "soilMoisture": 40, "latitude": 11.0510, "longitude": 76.0711 },
  { "id": 139, "name": "Mathura", "temperature": 34, "airQuality": "Moderate", "humidity": 50, "soilMoisture": 25, "latitude": 27.4924, "longitude": 77.6737 },
  { "id": 140, "name": "Mangalore", "temperature": 28, "airQuality": "Good", "humidity": 75, "soilMoisture": 40, "latitude": 12.9141, "longitude": 74.8560 },
  { "id": 140, "name": "VVCE" ,"latitude": 12.3361, "longitude": 76.6186 }
]